{
"type": "FeatureCollection",
"name": "HealthyCoasts-07-29",
"crs": { "type": "name", "properties": { "name": "urn:ogc:def:crs:OGC:1.3:CRS84" } },
"features": [
{ "type": "Feature", "properties": { "Name": "Bathurst", "description": null, "timestamp": null, "begin": null, "end": null, "altitudeMode": null, "tessellate": -1, "extrude": 0, "visibility": -1, "drawOrder": null, "icon": "redpin" }, "geometry": { "type": "Point", "coordinates": [ -65.623417, 47.656915, 0.0 ] } },
{ "type": "Feature", "properties": { "Name": "Miscou", "description": null, "timestamp": null, "begin": null, "end": null, "altitudeMode": null, "tessellate": -1, "extrude": 0, "visibility": -1, "drawOrder": null, "icon": "redpin" }, "geometry": { "type": "Point", "coordinates": [ -64.47851, 47.935481, 0.0 ] } },
{ "type": "Feature", "properties": { "Name": "Tracadie", "description": null, "timestamp": null, "begin": null, "end": null, "altitudeMode": null, "tessellate": -1, "extrude": 0, "visibility": -1, "drawOrder": null, "icon": "redpin" }, "geometry": { "type": "Point", "coordinates": [ -64.869613, 47.516123, 0.0 ] } },
{ "type": "Feature", "properties": { "Name": "Tabusintac", "description": null, "timestamp": null, "begin": null, "end": null, "altitudeMode": null, "tessellate": -1, "extrude": 0, "visibility": -1, "drawOrder": null, "icon": "redpin" }, "geometry": { "type": "Point", "coordinates": [ -64.99479, 47.332785, 0.0 ] } },
{ "type": "Feature", "properties": { "Name": "Esgenoôpetitj", "description": null, "timestamp": null, "begin": null, "end": null, "altitudeMode": null, "tessellate": -1, "extrude": 0, "visibility": -1, "drawOrder": null, "icon": "redpin" }, "geometry": { "type": "Point", "coordinates": [ -65.115566, 47.210682, 0.0 ] } },
{ "type": "Feature", "properties": { "Name": "Escuminac", "description": null, "timestamp": null, "begin": null, "end": null, "altitudeMode": null, "tessellate": -1, "extrude": 0, "visibility": -1, "drawOrder": null, "icon": "redpin" }, "geometry": { "type": "Point", "coordinates": [ -64.934358, 47.075586, 0.0 ] } },
{ "type": "Feature", "properties": { "Name": "Pointe-Sapin", "description": null, "timestamp": null, "begin": null, "end": null, "altitudeMode": null, "tessellate": -1, "extrude": 0, "visibility": -1, "drawOrder": null, "icon": "redpin" }, "geometry": { "type": "Point", "coordinates": [ -64.828949, 46.96325, 0.0 ] } },
{ "type": "Feature", "properties": { "Name": "Richibucto", "description": null, "timestamp": null, "begin": null, "end": null, "altitudeMode": null, "tessellate": -1, "extrude": 0, "visibility": -1, "drawOrder": null, "icon": "redpin" }, "geometry": { "type": "Point", "coordinates": [ -64.858556, 46.690392, 0.0 ] } },
{ "type": "Feature", "properties": { "Name": "Cocagne", "description": null, "timestamp": null, "begin": null, "end": null, "altitudeMode": null, "tessellate": -1, "extrude": 0, "visibility": -1, "drawOrder": null, "icon": "redpin" }, "geometry": { "type": "Point", "coordinates": [ -64.623556, 46.335282, 0.0 ] } },
{ "type": "Feature", "properties": { "Name": "Shediac", "description": null, "timestamp": null, "begin": null, "end": null, "altitudeMode": null, "tessellate": -1, "extrude": 0, "visibility": -1, "drawOrder": null, "icon": "redpin" }, "geometry": { "type": "Point", "coordinates": [ -64.498293, 46.23796, 0.0 ] } },
{ "type": "Feature", "properties": { "Name": "Cap-Pelé", "description": null, "timestamp": null, "begin": null, "end": null, "altitudeMode": null, "tessellate": -1, "extrude": 0, "visibility": -1, "drawOrder": null, "icon": "redpin" }, "geometry": { "type": "Point", "coordinates": [ -64.310155, 46.2304344, 0.0 ] } },
{ "type": "Feature", "properties": { "Name": "Indian Island", "description": null, "timestamp": null, "begin": null, "end": null, "altitudeMode": null, "tessellate": -1, "extrude": 0, "visibility": -1, "drawOrder": null, "icon": "redpin" }, "geometry": { "type": "Point", "coordinates": [ -64.79191, 46.691733, 0.0 ] } }
]
}
